{ "_id" : { "$oid" : "53c864fae8cfaae0547b310b" }, "accountIds" : [ "100108" ], "description" : "7 Bedroom House which includes: 1 - Small, 4 - Regular, 2 - Medium, 3 - Bathrooms, 1 - Kitchen.", "id" : "10-aberdeen-st", "images" : { "small" : "http://www.studenthousingkingston.ca/default/cache/file/7B8708C0-FA51-41DF-850BE93F7C698011_small.jpg", "large" : "http://www.studenthousingkingston.ca/default/cache/file/7B8708C0-FA51-41DF-850BE93F7C698011_medium.jpg" }, "location" : { "latitude" : 44.230265, "longitude" : -76.49454759999999, "country" : "Canada", "city" : "Kingston", "state" : "Ontario", "stateCode" : "ON", "zipcode" : "K7L", "streetName" : "Aberdeen Street", "streetNumber" : "10", "countryCode" : "CA" }, "name" : "10 Aberdeen Street", "url" : "/index.cfm/prospective-members/houses-rooms/10-aberdeen-street/" }
{ "_id" : { "$oid" : "53c864fae8cfaae0547b310c" }, "accountIds" : [ "100128" ], "description" : "7 Bedroom House which includes: 2 - Small, 3 - Regular (1 regular is a Fire Escape Room), 1 - Medium, and 1 - Large, 2 - Bathrooms, 1 - Kitchen.", "id" : "32-aberdeen-st", "images" : { "small" : "http://www.studenthousingkingston.ca/default/cache/file/015720FD-0C87-47B4-A5858C78C96379D5_small.jpg", "large" : "http://www.studenthousingkingston.ca/default/cache/file/015720FD-0C87-47B4-A5858C78C96379D5_medium.jpg" }, "location" : { "latitude" : 44.23082, "longitude" : -76.4943967, "country" : "Canada", "city" : "Kingston", "state" : "Ontario", "stateCode" : "ON", "zipcode" : "K7L", "streetName" : "Aberdeen Street", "streetNumber" : "32", "countryCode" : "CA" }, "name" : "32 Aberdeen Street", "url" : "/index.cfm/prospective-members/houses-rooms/32-aberdeen-st/" }
{ "_id" : { "$oid" : "53c864fae8cfaae0547b310d" }, "accountIds" : [ "100625" ], "description" : "10 Bedroom House which includes: 3 - Small, 2 - Regular, 2 - Medium, 2 - Large, and 1 - Extra Large, 3 - Bathrooms, 1 - Kitchen. This house is a mixed house and has meal and non meal plan rooms.", "id" : "366-albert-st", "images" : { "small" : "http://www.studenthousingkingston.ca/default/cache/file/C776DD58-5803-4FB3-A304333D72319849_small.jpg", "large" : "http://www.studenthousingkingston.ca/default/cache/file/C776DD58-5803-4FB3-A304333D72319849_medium.jpg" }, "location" : { "latitude" : 44.2326931, "longitude" : -76.50041229999999, "country" : "Canada", "city" : "Kingston", "state" : "Ontario", "stateCode" : "ON", "zipcode" : "K7L 3V9", "streetName" : "Albert Street", "streetNumber" : "366", "countryCode" : "CA" }, "name" : "366 Albert Street", "url" : "/index.cfm/prospective-members/houses-rooms/366-albert-st/" }
{ "_id" : { "$oid" : "53c864fae8cfaae0547b310e" }, "accountIds" : [ "100984" ], "description" : "9 Bedroom House which includes: 1 - Small, 1 - Regular, 3 - Medium, 4 - Large, 3 - Bathrooms, and 2 - Kitchens.", "id" : "241-alfred-st", "images" : { "small" : "http://www.studenthousingkingston.ca/default/cache/file/F0B3772D-7DDD-43A9-94D6A4B1BEF264B8_small.jpg", "large" : "http://www.studenthousingkingston.ca/default/cache/file/F0B3772D-7DDD-43A9-94D6A4B1BEF264B8_medium.jpg" }, "location" : { "latitude" : 44.2322967, "longitude" : -76.4970319, "country" : "Canada", "city" : "Kingston", "state" : "Ontario", "stateCode" : "ON", "zipcode" : "K7L", "streetName" : "Alfred Street", "streetNumber" : "241", "countryCode" : "CA" }, "name" : "241 Alfred Street", "url" : "/index.cfm/prospective-members/houses-rooms/241-alfred-st/" }
{ "_id" : { "$oid" : "53c864fae8cfaae0547b310f" }, "accountIds" : [ "228932", "229350" ], "description" : "6 Bedroom, Non Meal Plan House which includes: 3 - Small, 2 - Regular, 1 - Medium, 2 - Bathrooms, and 2 - Kitchens.", "id" : "285-alfred-st", "images" : { "small" : "http://www.studenthousingkingston.ca/default/cache/file/3EC71008-5F67-4AAE-A456AA32B4330EE9_small.jpg", "large" : "http://www.studenthousingkingston.ca/default/cache/file/3EC71008-5F67-4AAE-A456AA32B4330EE9_medium.jpg" }, "location" : { "latitude" : 44.23363759999999, "longitude" : -76.4971585, "country" : "Canada", "city" : "Kingston", "state" : "Ontario", "stateCode" : "ON", "zipcode" : "K7L", "streetName" : "Alfred Street", "streetNumber" : "285", "countryCode" : "CA" }, "name" : "285 Alfred Street", "url" : "/index.cfm/prospective-members/houses-rooms/285-alfred-st/" }
{ "_id" : { "$oid" : "53c864fae8cfaae0547b3110" }, "accountIds" : [ "228934" ], "description" : "4 Bedroom House which includes: 2 - Small, 1 - Regular, 1 - Medium, 1 - Bathroom, 1 - Kitchen.", "id" : "287-alfred-st", "images" : { "small" : "http://www.studenthousingkingston.ca/default/cache/file/CC0A1608-3C32-4B88-BC7BFF440B810BFB_small.png", "large" : "http://www.studenthousingkingston.ca/default/cache/file/CC0A1608-3C32-4B88-BC7BFF440B810BFB_medium.png" }, "location" : { "latitude" : 44.2336354, "longitude" : -76.497344, "country" : "Canada", "city" : "Kingston", "state" : "Ontario", "stateCode" : "ON", "zipcode" : "K7L", "streetName" : "Alfred Street", "streetNumber" : "287", "countryCode" : "CA" }, "name" : "287 Alfred Street", "url" : "/index.cfm/prospective-members/houses-rooms/287-alfred-st/" }
{ "_id" : { "$oid" : "53c864fae8cfaae0547b3111" }, "accountIds" : [ "104429" ], "description" : "10 Bedroom House which includes: 2 - Small, 3 - Regular, 1 - Medium, and 4 - Large. 3 Bathrooms, 1 - Kitchen.", "id" : "397-brock-st", "images" : { "small" : "http://www.studenthousingkingston.ca/default/cache/file/D4157A0B-48CF-4F50-9F897DBB463B6B1F_small.jpg", "large" : "http://www.studenthousingkingston.ca/default/cache/file/D4157A0B-48CF-4F50-9F897DBB463B6B1F_medium.jpg" }, "location" : { "latitude" : 44.2325762, "longitude" : -76.4953046, "country" : "Canada", "city" : "Kingston", "state" : "Ontario", "stateCode" : "ON", "zipcode" : "K7L 1T1", "streetName" : "Brock Street", "streetNumber" : "397", "countryCode" : "CA" }, "name" : "397 Brock Street", "url" : "/index.cfm/prospective-members/houses-rooms/397-brock-st/" }
{ "_id" : { "$oid" : "53c864fae8cfaae0547b3112" }, "accountIds" : [ "104445" ], "description" : "9 Bedroom House which includes: 5 - Small, 1 - Regular, 1 - Medium, 1 - Large, and 1 - Extra Large, 3 - Bathrooms, 1 - Kitchen.", "id" : "406-brock-st", "images" : { "small" : "http://www.studenthousingkingston.ca/default/cache/file/4FB11243-CF8D-4330-BDD053F16981E683_small.jpg", "large" : "http://www.studenthousingkingston.ca/default/cache/file/4FB11243-CF8D-4330-BDD053F16981E683_medium.jpg" }, "location" : { "latitude" : 44.2325892, "longitude" : -76.4955756, "country" : "Canada", "city" : "Kingston", "state" : "Ontario", "stateCode" : "ON", "zipcode" : "K7L 1T1", "streetName" : "Brock Street", "streetNumber" : "406", "countryCode" : "CA" }, "name" : "406 Brock Street", "url" : "/index.cfm/prospective-members/houses-rooms/406-brock-st/" }
{ "_id" : { "$oid" : "53c864fae8cfaae0547b3113" }, "accountIds" : [ "104444" ], "description" : "10 Bedroom House which includes: 1 - Small, 4 - Regular, 3 - Medium, 1 - Large, and 1 - Extra Large, 5 - Bathrooms, 3 - Kitchens. This house is a mixed house and has meal and non meal plan rooms.", "id" : "404-brock-st", "images" : { "small" : "http://www.studenthousingkingston.ca/default/cache/file/9E892839-6FA6-49F3-96D7FAC10340DE87_small.jpg", "large" : "http://www.studenthousingkingston.ca/default/cache/file/9E892839-6FA6-49F3-96D7FAC10340DE87_medium.jpg" }, "location" : { "latitude" : 44.2325713, "longitude" : -76.49545449999999, "country" : "Canada", "city" : "Kingston", "state" : "Ontario", "stateCode" : "ON", "zipcode" : "K7L 1T1", "streetName" : "Brock Street", "streetNumber" : "404", "countryCode" : "CA" }, "name" : "404 Brock Street", "url" : "/index.cfm/prospective-members/houses-rooms/404-brock-street1/" }
{ "_id" : { "$oid" : "53c864fae8cfaae0547b3114" }, "accountIds" : [ "111584", "111585" ], "description" : "Non-meal plan house. Apartments A, B, C and D . Occupants at this location pay a $100/month premium.\r\nApartments:\r\nA - 2 small, 1 medium.   B - 2 small, 1 medium.  C - 2 medium and  D - 1 small, 1 regular. Each apartment has one bathroom.", "id" : "374-earl-st", "images" : { "small" : "http://www.studenthousingkingston.ca/default/cache/file/3009D663-2A45-4C4F-B89DCD4F88684B3E_small.jpg", "large" : "http://www.studenthousingkingston.ca/default/cache/file/3009D663-2A45-4C4F-B89DCD4F88684B3E_medium.jpg" }, "location" : { "latitude" : 44.2296814, "longitude" : -76.49890569999999, "country" : "Canada", "city" : "Kingston", "state" : "Ontario", "stateCode" : "ON", "zipcode" : "K7L 2J5", "streetName" : "Earl Street", "streetNumber" : "374", "countryCode" : "CA" }, "name" : "374 Earl Street", "url" : "/index.cfm/prospective-members/houses-rooms/374376-earl-st-c-and-d/" }
{ "_id" : { "$oid" : "53c864fae8cfaae0547b3115" }, "accountIds" : [ "111586", "111590", "111592" ], "description" : "Non-meal plan house. Apartments A, B, C and D . Occupants at this location pay a $100/month premium.\r\nApartments:\r\nA - 2 small, 1 medium.   B - 2 small, 1 medium.  C - 2 medium and  D - 1 small, 1 regular. Each apartment has one bathroom.", "id" : "376-earl-st", "images" : { "small" : "http://www.studenthousingkingston.ca/default/cache/file/3009D663-2A45-4C4F-B89DCD4F88684B3E_small.jpg", "large" : "http://www.studenthousingkingston.ca/default/cache/file/3009D663-2A45-4C4F-B89DCD4F88684B3E_medium.jpg" }, "location" : { "latitude" : 44.2296782, "longitude" : -76.4989738, "country" : "Canada", "city" : "Kingston", "state" : "Ontario", "stateCode" : "ON", "zipcode" : "K7L 2J5", "streetName" : "Earl Street", "streetNumber" : "376", "countryCode" : "CA" }, "name" : "376 Earl Street", "url" : "/index.cfm/prospective-members/houses-rooms/374376-earl-st-c-and-d/" }
{ "_id" : { "$oid" : "53c864fae8cfaae0547b3116" }, "accountIds" : [ "113955" ], "description" : "8 Bedroom House which includes: 2 - Small, 2 - Regular, 4 - Medium, 2 - Bathrooms, 1 - Kitchen.", "id" : "30-garrett-st", "images" : { "small" : "http://www.studenthousingkingston.ca/default/cache/file/14FB8FBF-6FAD-4887-8BBD3EE7EFF6D967_small.jpg", "large" : "http://www.studenthousingkingston.ca/default/cache/file/14FB8FBF-6FAD-4887-8BBD3EE7EFF6D967_medium.jpg" }, "location" : { "latitude" : 44.233343, "longitude" : -76.49560339999999, "country" : "Canada", "city" : "Kingston", "state" : "Ontario", "stateCode" : "ON", "zipcode" : "K7L", "streetName" : "Garrett Street", "streetNumber" : "30", "countryCode" : "CA" }, "name" : "30 Garrett Street", "url" : "/index.cfm/prospective-members/houses-rooms/30-garrett-st/" }
{ "_id" : { "$oid" : "53c864fae8cfaae0547b3117" }, "accountIds" : [ "113957" ], "description" : "7 Bedroom House which includes: 1 - Extra -Small (Fire Escape Room), 2 - Regular, 3 - Medium, and 1 - Extra Large, 2 - Bathrooms, 1 - Kitchen.", "id" : "31-garrett-st", "images" : { "small" : "http://www.studenthousingkingston.ca/default/cache/file/21993FC3-AD54-4399-8C13D8F0EE2CCB58_small.jpg", "large" : "http://www.studenthousingkingston.ca/default/cache/file/21993FC3-AD54-4399-8C13D8F0EE2CCB58_medium.jpg" }, "location" : { "latitude" : 44.2333459, "longitude" : -76.4954396, "country" : "Canada", "city" : "Kingston", "state" : "Ontario", "stateCode" : "ON", "zipcode" : "K7L", "streetName" : "Garrett Street", "streetNumber" : "31", "countryCode" : "CA" }, "name" : "31 Garrett Street", "url" : "/index.cfm/prospective-members/houses-rooms/31-garrett-st/" }
{ "_id" : { "$oid" : "53c864fae8cfaae0547b3118" }, "accountIds" : [ "116823" ], "description" : "8 Bedroom House which includes: 1 - Small, 1 - Extra Small, 4 - Regular, 1 - Medium, and 1 - Jumbo, 3 - Bathrooms, 1 - Kitchen.", "id" : "373-johnson-st", "images" : { "small" : "http://www.studenthousingkingston.ca/default/cache/file/268DF3D9-41BF-4D90-89C4BDAAB4026CBD_small.jpg", "large" : "http://www.studenthousingkingston.ca/default/cache/file/268DF3D9-41BF-4D90-89C4BDAAB4026CBD_medium.jpg" }, "location" : { "latitude" : 44.2315932, "longitude" : -76.49400829999999, "country" : "Canada", "city" : "Kingston", "state" : "Ontario", "stateCode" : "ON", "zipcode" : "K7L 1Y8", "streetName" : "Johnson Street", "streetNumber" : "373", "countryCode" : "CA" }, "name" : "373 Johnson Street", "url" : "/index.cfm/prospective-members/houses-rooms/373-johnson-st/" }
{ "_id" : { "$oid" : "53c864fae8cfaae0547b3119" }, "accountIds" : [ "175746" ], "description" : "6 Bedroom Non Meal Plan House which includes: 1 - Small, 2 - Medium (1 - Medium is a Fire Escape Room), 2 - Large, and 1 - Jumbo, 2 - Bathrooms, 1 - Kitchen.", "id" : "29-nelson-st", "images" : { "small" : "http://www.studenthousingkingston.ca/default/cache/file/13B9F7F8-07F7-4768-A8817C6FE8B93633_small.jpg", "large" : "http://www.studenthousingkingston.ca/default/cache/file/13B9F7F8-07F7-4768-A8817C6FE8B93633_medium.jpg" }, "location" : { "latitude" : 44.2324396, "longitude" : -76.5012931, "country" : "Canada", "city" : "Kingston", "state" : "Ontario", "stateCode" : "ON", "zipcode" : "K7L 3W5", "streetName" : "Nelson Street", "streetNumber" : "29", "countryCode" : "CA" }, "name" : "29 Nelson Street", "url" : "/index.cfm/prospective-members/houses-rooms/29-nelson-st/" }
{ "_id" : { "$oid" : "53c864fae8cfaae0547b311a" }, "accountIds" : [ "175727" ], "description" : "6 Bedroom Non Meal Plan House which includes: 1 - Small, 2 - Regular, 2 - Medium, and 1 - Extra Large, 2 - Bathrooms, 1 - Kitchen.", "id" : "31-nelson-st", "images" : { "small" : "http://www.studenthousingkingston.ca/default/cache/file/653D53CC-7C54-4BAA-B379606B1ADBD296_small.jpg", "large" : "http://www.studenthousingkingston.ca/default/cache/file/653D53CC-7C54-4BAA-B379606B1ADBD296_medium.jpg" }, "location" : { "latitude" : 44.232475, "longitude" : -76.50132099999999, "country" : "Canada", "city" : "Kingston", "state" : "Ontario", "stateCode" : "ON", "zipcode" : "K7L 3W5", "streetName" : "Nelson Street", "streetNumber" : "31", "countryCode" : "CA" }, "name" : "31 Nelson Street", "url" : "/index.cfm/prospective-members/houses-rooms/31-nelson-st/" }
{ "_id" : { "$oid" : "53c864fae8cfaae0547b311b" }, "accountIds" : [ "134963" ], "description" : "9 Bedroom House which includes: 2 - Regular, 1 - Medium, 3 - Large, 2 - Extra Large, and 1 Jumbo, 3 - Bathrooms, 1 - Kitchen.", "id" : "307-university-ave", "images" : { "small" : "http://www.studenthousingkingston.ca/default/cache/file/1F3E144F-E5CA-4846-8606E1634E5BD727_small.jpg", "large" : "http://www.studenthousingkingston.ca/default/cache/file/1F3E144F-E5CA-4846-8606E1634E5BD727_medium.jpg" }, "location" : { "latitude" : 44.2330399, "longitude" : -76.4954956, "country" : "Canada", "city" : "Kingston", "state" : "Ontario", "stateCode" : "ON", "zipcode" : "K7L 3R2", "streetName" : "University Avenue", "streetNumber" : "307", "countryCode" : "CA" }, "name" : "307 University Avenue", "url" : "/index.cfm/prospective-members/houses-rooms/307-university-ave/" }
{ "_id" : { "$oid" : "53c864fae8cfaae0547b311c" }, "id" : "309-university-ave", "name" : "309 University Avenue", "description" : "8 Bedroom House which includes: 1 - Small, 3 - Medium, 2 - Large, 1 - Extra Large, and 1 - Jumbo, 2 - Bathrooms, 1 - Kitchen.", "url" : "/index.cfm/prospective-members/houses-rooms/309-university-ave/", "images" : { "small" : "http://www.studenthousingkingston.ca/default/cache/file/3F57D860-095B-499B-AB2C6C0D49B1FBBB_small.jpg", "large" : "http://www.studenthousingkingston.ca/default/cache/file/3F57D860-095B-499B-AB2C6C0D49B1FBBB_medium.jpg" }, "location" : { "latitude" : 44.2330809, "longitude" : -76.4954824, "country" : "Canada", "city" : "Kingston", "state" : "Ontario", "stateCode" : "ON", "zipcode" : "K7L 3R2", "streetName" : "University Avenue", "streetNumber" : "309", "countryCode" : "CA" } }
{ "_id" : { "$oid" : "53c864fae8cfaae0547b311d" }, "accountIds" : [ "137987" ], "description" : "7 Bedroom Non Meal Plan House which includes: 4 - Medium, 1 - Large, and 2 - Extra Large, 2 - Bathrooms, 1 - Kitchen.", "id" : "314-william-st", "images" : { "small" : "http://www.studenthousingkingston.ca/default/cache/file/81162744-1395-45E6-974C13A9A33E8206_small.jpg", "large" : "http://www.studenthousingkingston.ca/default/cache/file/81162744-1395-45E6-974C13A9A33E8206_medium.jpg" }, "location" : { "latitude" : 44.2304727, "longitude" : -76.4945826, "country" : "Canada", "city" : "Kingston", "state" : "Ontario", "stateCode" : "ON", "zipcode" : "K7L", "streetName" : "William Street", "streetNumber" : "314", "countryCode" : "CA" }, "name" : "314 William Street", "url" : "/index.cfm/prospective-members/houses-rooms/314-william-st/" }
{ "_id" : { "$oid" : "53c864fae8cfaae0547b311e" }, "accountIds" : [ "137988" ], "description" : "11 Bedroom House which includes: 3 - Small (1 small is Fire Escape Room), 3 - Regular, 2 - Medium, 2 - Large, and 1 - Extra Large, 4 - Bathrooms, 1 - Kitchen.", "id" : "318-william-st", "images" : { "small" : "http://www.studenthousingkingston.ca/default/cache/file/7F8D2694-ADB8-484D-9FE2DE8BAC1ECED2_small.jpg", "large" : "http://www.studenthousingkingston.ca/default/cache/file/7F8D2694-ADB8-484D-9FE2DE8BAC1ECED2_medium.jpg" }, "location" : { "latitude" : 44.2304656, "longitude" : -76.4947354, "country" : "Canada", "city" : "Kingston", "state" : "Ontario", "stateCode" : "ON", "zipcode" : "K7L", "streetName" : "William Street", "streetNumber" : "318", "countryCode" : "CA" }, "name" : "318 William Street", "url" : "/index.cfm/prospective-members/houses-rooms/318-william-street/" }
{ "_id" : { "$oid" : "53c864fae8cfaae0547b311f" }, "accountIds" : [ "137993" ], "description" : "9 Bedroom House which includes: 3 - Regular, 3 - Large, and 3 - Extra Large, 3 - Bathrooms, 1 - Kitchen.", "id" : "320-william-st", "images" : { "small" : "http://www.studenthousingkingston.ca/default/cache/file/FF21C13B-53D3-4DE9-8F85A8EAF672C4B2_small.jpg", "large" : "http://www.studenthousingkingston.ca/default/cache/file/FF21C13B-53D3-4DE9-8F85A8EAF672C4B2_medium.jpg" }, "location" : { "latitude" : 44.2304723, "longitude" : -76.4948132, "country" : "Canada", "city" : "Kingston", "state" : "Ontario", "stateCode" : "ON", "zipcode" : "K7L", "streetName" : "William Street", "streetNumber" : "320", "countryCode" : "CA" }, "name" : "320 William Street", "url" : "/index.cfm/prospective-members/houses-rooms/320-william-st/" }
{ "_id" : { "$oid" : "53c864fae8cfaae0547b3120" }, "accountIds" : [ "137994" ], "description" : "9 Bedroom House which includes: 1 - Extra Small, 3 - Regular, 3 - Medium, and 2 - Large, 3 - Bathrooms, 1 - Kitchen.", "id" : "323-william-st", "images" : { "small" : "http://www.studenthousingkingston.ca/default/cache/file/161468E9-0128-4F20-B89B6975B1C2E06D_small.jpg", "large" : "http://www.studenthousingkingston.ca/default/cache/file/161468E9-0128-4F20-B89B6975B1C2E06D_medium.jpg" }, "location" : { "latitude" : 44.2307614, "longitude" : -76.4949756, "country" : "Canada", "city" : "Kingston", "state" : "Ontario", "stateCode" : "ON", "zipcode" : "K7L", "streetName" : "William Street", "streetNumber" : "323", "countryCode" : "CA" }, "name" : "323 William Street", "url" : "/index.cfm/prospective-members/houses-rooms/323-william-st/" }
